[
  {
    "state": "__undefined__",
    "tasks": [
      {
        "location": {
          "address": {
            "city": "Tel Aviv",
            "street_number": "23",
            "country": "IL"
          }
        },
        "destination": {
          "address": {
            "city": "Tel Aviv",
            "street_number": "32",
            "country": "IL"
          }
        },
        "state": "__undefined__",
        "type": "TRANSPORTATION",
        "title": "t11",
        "volunteer_id": "__REPLACE__",
        "due_date": "__REPLACE__",
        "description": "d11"
      }
    ],
    "petitioner_id": "__REPLACE__",
    "description": "desc goes here",
    "title": "title goes here"
  },
  {
    "state": "__undefined__",
    "tasks": [
      {
        "location": {
          "address": {
            "city": "Tel Aviv",
            "street_number": "23",
            "country": "IL"
          },
          "geo_location": {
            "lng": 10,
            "lat": 15
          }
        },
        "destination": {
          "address": {
            "city": "Tel Aviv",
            "street_number": "32",
            "country": "IL"
          }
        },
        "state": "__undefined__",
        "type": "TRANSPORTATION",
        "title": "t11",
        "volunteer_id": "__REPLACE__",
        "due_date": "__REPLACE__",
        "description": "d11"
      }
    ],
    "petitioner_id": "__REPLACE__",
    "description": "desc goes here",
    "title": "title goes here"
  },
  {
    "state": "__undefined__",
    "tasks": [
      {
        "location": {
          "address": {
            "city": "Tel Aviv",
            "street_number": "23",
            "country": "IL"
          }
        },
        "state": "__undefined__",
        "type": "TRANSPORTATION",
        "title": "t11",
        "volunteer_id": "__REPLACE__",
        "due_date": "__REPLACE__",
        "description": "d11"
      }
    ],
    "petitioner_id": "__REPLACE__",
    "description": "desc goes here",
    "title": "title goes here"
  },
  {
    "state": "__undefined__",
    "tasks": [
      {
        "destination": {
          "address": {
            "city": "Tel Aviv",
            "street_number": "32",
            "country": "IL"
          }
        },
        "state": "__undefined__",
        "type": "TRANSPORTATION",
        "title": "t11",
        "volunteer_id": "__REPLACE__",
        "due_date": "__REPLACE__",
        "description": "d11"
      }
    ],
    "petitioner_id": "__REPLACE__",
    "description": "desc goes here",
    "title": "title goes here"
  },
  {
  "state": "__undefined__",
  "tasks": [
    {
      "location": {
        "geo_location": {
          "lng": -120,
          "lat": 30
        }
      },
      "destination": {
        "geo_location": {
          "lng": 30,
          "lat": 30
        }
      },
      "state": "__undefined__",
      "type": "TRANSPORTATION",
      "title": "t11",
      "volunteer_id": "__REPLACE__",
      "due_date": "__REPLACE__",
      "description": "d11"
    }
  ],
  "petitioner_id": "__REPLACE__",
  "description": "desc goes here",
  "title": "title goes here"
},
  {
  "state": "__undefined__",
  "tasks": [
    {
      "location": {
        "geo_location": {
          "lng": 30,
          "lat": 30
        }
      },
      "destination": {
        "geo_location": {
          "lng": 30,
          "lat": -230
        }
      },
      "state": "__undefined__",
      "type": "TRANSPORTATION",
      "title": "t11",
      "volunteer_id": "__REPLACE__",
      "due_date": "__REPLACE__",
      "description": "d11"
    }
  ],
  "petitioner_id": "__REPLACE__",
  "description": "desc goes here",
  "title": "title goes here"
}
]